"","sitename","lon","lat","dates","economy"
"1","Segorez",-2.40060038788652,2.17315016781595,"7500 ± 60 BP | 7499 ± 120 BP | 7496 ± 40 BP | 7477 ± 50 BP | 7463 ± 60 BP | 7461 ± 20 BP | 7457 ± 60 BP | 7456 ± 120 BP | 7435 ± 40 BP | 7431 ± 50 BP | 7420 ± 120 BP | 7416 ± 20 BP | 7415 ± 50 BP | 7404 ± 30 BP | 7400 ± 20 BP | 7399 ± 30 BP | 7388 ± 40 BP | 7383 ± 100 BP | 7381 ± 40 BP | 7381 ± 20 BP | 7368 ± 60 BP","HG"
"2","Catadrid",-2.3515625,2.4140625,"7441 ± 30 BP | 7424 ± 40 BP | 7406 ± 40 BP | 7405 ± 120 BP | 7399 ± 30 BP | 7384 ± 30 BP | 7362 ± 60 BP","HG"
"3","Malid",-2.2109375,2.1953125,"7412 ± 40 BP | 7404 ± 60 BP | 7401 ± 60 BP | 7373 ± 20 BP | 7373 ± 20 BP | 7365 ± 50 BP","HG"
"4","Antonnet",-2.0078125,2.2265625,"7405 ± 80 BP | 7395 ± 80 BP | 7361 ± 30 BP","HG"
"5","Bourville",-2.0546875,2.3359375,"7395 ± 30 BP","HG"
"6","Farwallow",-2.2578125,2.0390625,"7369 ± 40 BP","HG"
